{
  "New Windsor": {
    "formatted_address": "Windsor, UK",
    "lat": 51.4773308,
    "lng": -0.6431535
  },
  "Gatton": {
    "formatted_address": "Gatton Park, UK",
    "lat": 51.2583985,
    "lng": -0.1745557
  },
  "New Shoreham": {
    "formatted_address": "Shoreham-by-Sea, UK",
    "lat": 50.8373076,
    "lng": -0.308674
  },
  "Bedford": {
    "formatted_address": "Bedford, UK",
    "lat": 52.1386394,
    "lng": -0.4667782
  },
  "Abingdon": {
    "formatted_address": "Abingdon, UK",
    "lat": 51.67078,
    "lng": -1.2879529
  },
  "Reading": {
    "formatted_address": "Reading, UK",
    "lat": 51.4542645,
    "lng": -0.9781303
  },
  "Wallingford": {
    "formatted_address": "Wallingford OX10, UK",
    "lat": 51.5974177,
    "lng": -1.1335613
  },
  "Amersham": {
    "formatted_address": "Amersham, UK",
    "lat": 51.6755179,
    "lng": -0.6072409999999999
  },
  "Aylesbury": {
    "formatted_address": "Aylesbury, UK",
    "lat": 51.815606,
    "lng": -0.8084
  },
  "Buckingham": {
    "formatted_address": "Buckingham MK18, UK",
    "lat": 51.999326,
    "lng": -0.987645
  },
  "Great Marlow": {
    "formatted_address": "Great Marlow, UK",
    "lat": 51.5911789,
    "lng": -0.8005106
  },
  "Chipping Wycombe": {
    "formatted_address": "Chepping Wycombe Civil Parish, UK",
    "lat": 51.6102274,
    "lng": -0.7024429000000001
  },
  "Wendover": {
    "formatted_address": "Wendover, Aylesbury, UK",
    "lat": 51.761877,
    "lng": -0.739779
  },
  "Cambridge ": {
    "formatted_address": "Cambridge, UK",
    "lat": 52.205337,
    "lng": 0.121817
  },
  "Chester": {
    "formatted_address": "Chester, UK",
    "lat": 53.193392,
    "lng": -2.893075
  },
  "Bodmin": {
    "formatted_address": "Bodmin, UK",
    "lat": 50.4714961,
    "lng": -4.7188629
  },
  "Bossiney": {
    "formatted_address": "Bossiney, Tintagel PL34 0AX, UK",
    "lat": 50.66686,
    "lng": -4.738992
  },
  "Callington": {
    "formatted_address": "Callington PL17, UK",
    "lat": 50.502332,
    "lng": -4.315735
  },
  "Camelford": {
    "formatted_address": "Camelford PL32, UK",
    "lat": 50.622055,
    "lng": -4.682364
  },
  "East Looe": {
    "formatted_address": "Looe, UK",
    "lat": 50.3562269,
    "lng": -4.455232
  },
  "Fowey": {
    "formatted_address": "Fowey, UK",
    "lat": 50.33499,
    "lng": -4.636525
  },
  "Grampound": {
    "formatted_address": "Grampound, Truro TR2, UK",
    "lat": 50.2992589,
    "lng": -4.8984499
  },
  "Helston": {
    "formatted_address": "Helston TR13, UK",
    "lat": 50.101593,
    "lng": -5.274996
  },
  "Launceston": {
    "formatted_address": "Launceston PL15, UK",
    "lat": 50.636834,
    "lng": -4.3604516
  },
  "Liskeard": {
    "formatted_address": "Liskeard PL14, UK",
    "lat": 50.45552,
    "lng": -4.464719
  },
  "Lostwithiel": {
    "formatted_address": "Lostwithiel PL22, UK",
    "lat": 50.406021,
    "lng": -4.6750679
  },
  "Mitchell": {
    "formatted_address": "Mitchell, Newquay TR8, UK",
    "lat": 50.353083,
    "lng": -5.008638899999999
  },
  "Newport": {
    "formatted_address": "Newport, UK",
    "lat": 51.584151,
    "lng": -2.997664
  },
  "Penryn": {
    "formatted_address": "Penryn, UK",
    "lat": 50.169173,
    "lng": -5.107088000000001
  },
  "St. Germans": {
    "formatted_address": "St Germans, Saltash PL12, UK",
    "lat": 50.39360110000001,
    "lng": -4.3079291
  },
  "St. Ives": {
    "formatted_address": "St Ives, UK",
    "lat": 50.20838579999999,
    "lng": -5.490886400000001
  },
  "St. Mawes": {
    "formatted_address": "St Mawes, Truro, UK",
    "lat": 50.158551,
    "lng": -5.014632
  },
  "Saltash": {
    "formatted_address": "Saltash, UK",
    "lat": 50.40920999999999,
    "lng": -4.21643
  },
  "Tregony": {
    "formatted_address": "Tregony, Truro TR2, UK",
    "lat": 50.267257,
    "lng": -4.914992
  },
  "Truro": {
    "formatted_address": "Truro, UK",
    "lat": 50.263195,
    "lng": -5.051041
  },
  "West Looe": {
    "formatted_address": "West Looe, Looe, UK",
    "lat": 50.3540374,
    "lng": -4.4556324
  },
  "Carlisle": {
    "formatted_address": "Carlisle, UK",
    "lat": 54.892473,
    "lng": -2.932931
  },
  "Cockermouth": {
    "formatted_address": "Cockermouth CA13, UK",
    "lat": 54.663261,
    "lng": -3.367985
  },
  "Derby ": {
    "formatted_address": "Derby, UK",
    "lat": 52.9225301,
    "lng": -1.4746186
  },
  "Ashburton": {
    "formatted_address": "Ashburton, Newton Abbot TQ13, UK",
    "lat": 50.515772,
    "lng": -3.751395
  },
  "Barnstaple": {
    "formatted_address": "Barnstaple, UK",
    "lat": 51.0781599,
    "lng": -4.058338
  },
  "Bere Alston": {
    "formatted_address": "Bere Alston, Yelverton PL20, UK",
    "lat": 50.481561,
    "lng": -4.186218
  },
  "Dartmouth": {
    "formatted_address": "Dartmouth, UK",
    "lat": 50.352517,
    "lng": -3.578807
  },
  "Exeter": {
    "formatted_address": "Exeter, UK",
    "lat": 50.718412,
    "lng": -3.533899
  },
  "Honiton": {
    "formatted_address": "Honiton EX14, UK",
    "lat": 50.799468,
    "lng": -3.188683
  },
  "Okehampton": {
    "formatted_address": "Okehampton EX20, UK",
    "lat": 50.738308,
    "lng": -4.004263
  },
  "Plymouth": {
    "formatted_address": "Plymouth, UK",
    "lat": 50.3754565,
    "lng": -4.1426565
  },
  "Plympton Erle": {
    "formatted_address": "Plympton, Plymouth PL7, UK",
    "lat": 50.3867992,
    "lng": -4.035937
  },
  "Tavistock": {
    "formatted_address": "Tavistock PL19, UK",
    "lat": 50.5511229,
    "lng": -4.141654
  },
  "Tiverton": {
    "formatted_address": "Tiverton EX16, UK",
    "lat": 50.902049,
    "lng": -3.491207
  },
  "Totnes": {
    "formatted_address": "Totnes TQ9, UK",
    "lat": 50.433741,
    "lng": -3.685797
  },
  "Dorset": {
    "formatted_address": "Dorset, UK",
    "lat": 50.7487635,
    "lng": -2.3444786
  },
  "Bridport": {
    "formatted_address": "Bridport DT6, UK",
    "lat": 50.7335769,
    "lng": -2.758301
  },
  "Corfe Castle": {
    "formatted_address": "Corfe Castle, Wareham BH20, UK",
    "lat": 50.639539,
    "lng": -2.056616
  },
  "Dorchester": {
    "formatted_address": "Dorchester, UK",
    "lat": 50.7111639,
    "lng": -2.441181
  },
  "Lyme Regis": {
    "formatted_address": "Lyme Regis, UK",
    "lat": 50.725156,
    "lng": -2.936639
  },
  "Poole": {
    "formatted_address": "Poole, UK",
    "lat": 50.71505,
    "lng": -1.987248
  },
  "Shaftesbury": {
    "formatted_address": "Shaftesbury SP7, UK",
    "lat": 51.0046,
    "lng": -2.198083
  },
  "Wareham": {
    "formatted_address": "Wareham, UK",
    "lat": 50.687817,
    "lng": -2.110981
  },
  "Weymouth and Melcombe Regis": {
    "formatted_address": "Melcombe Regis, Weymouth DT4 7LR, UK",
    "lat": 50.623666,
    "lng": -2.45599
  },
  "Durham City": {
    "formatted_address": "Durham, UK",
    "lat": 54.77525,
    "lng": -1.584852
  },
  "Essex": {
    "formatted_address": "Essex, UK",
    "lat": 51.57424469999999,
    "lng": 0.4856781
  },
  "Colchester": {
    "formatted_address": "Colchester, UK",
    "lat": 51.895927,
    "lng": 0.8918740000000001
  },
  "Harwich": {
    "formatted_address": "Harwich, UK",
    "lat": 51.934731,
    "lng": 1.260297
  },
  "Maldon": {
    "formatted_address": "Maldon CM9, UK",
    "lat": 51.73180499999999,
    "lng": 0.6714479999999999
  },
  "Bristol": {
    "formatted_address": "Bristol, UK",
    "lat": 51.454513,
    "lng": -2.58791
  },
  "Cirencester": {
    "formatted_address": "Cirencester GL7, UK",
    "lat": 51.718495,
    "lng": -1.968243
  },
  "Gloucester ": {
    "formatted_address": "Gloucester, UK",
    "lat": 51.8642449,
    "lng": -2.238156
  },
  "Tewkesbury": {
    "formatted_address": "Tewkesbury GL20, UK",
    "lat": 51.992265,
    "lng": -2.15796
  },
  "Andover": {
    "formatted_address": "Andover, UK",
    "lat": 51.2111975,
    "lng": -1.4919233
  },
  "Christchurch": {
    "formatted_address": "Christchurch, UK",
    "lat": 50.735777,
    "lng": -1.778586
  },
  "Lymington": {
    "formatted_address": "Lymington SO41, UK",
    "lat": 50.758531,
    "lng": -1.5419099
  },
  "Newport I.o.W.": {
    "formatted_address": "Newport PO30, UK",
    "lat": 50.700803,
    "lng": -1.291633
  },
  "Newtown I.o.W.": {
    "formatted_address": "Newtown, Newport PO30 4PA, UK",
    "lat": 50.71525099999999,
    "lng": -1.400251
  },
  "Petersfield": {
    "formatted_address": "Petersfield, UK",
    "lat": 51.007591,
    "lng": -0.93899
  },
  "Portsmouth": {
    "formatted_address": "Portsmouth, UK",
    "lat": 50.8197675,
    "lng": -1.0879769
  },
  "Southampton": {
    "formatted_address": "Southampton, UK",
    "lat": 50.90970040000001,
    "lng": -1.4043509
  },
  "Stockbridge": {
    "formatted_address": "Stockbridge SO20, UK",
    "lat": 51.116603,
    "lng": -1.484301
  },
  "Whitchurch": {
    "formatted_address": "Whitchurch, UK",
    "lat": 51.22976999999999,
    "lng": -1.335304
  },
  "Winchester": {
    "formatted_address": "Winchester, UK",
    "lat": 51.059771,
    "lng": -1.310142
  },
  "Yarmouth I.o.W.": {
    "formatted_address": "Yarmouth, UK",
    "lat": 50.705279,
    "lng": -1.498938
  },
  "Hereford ": {
    "formatted_address": "Hereford, UK",
    "lat": 52.05639799999999,
    "lng": -2.715974
  },
  "Leominster": {
    "formatted_address": "Leominster HR6, UK",
    "lat": 52.2257,
    "lng": -2.742772
  },
  "Weobley": {
    "formatted_address": "Weobley, Hereford HR4, UK",
    "lat": 52.1589421,
    "lng": -2.8724958
  },
  "Hertford ": {
    "formatted_address": "Hertford, UK",
    "lat": 51.795756,
    "lng": -0.08115699999999999
  },
  "St. Albans": {
    "formatted_address": "St Albans, UK",
    "lat": 51.752725,
    "lng": -0.339436
  },
  "Huntingdon ": {
    "formatted_address": "Huntingdon, UK",
    "lat": 52.33146,
    "lng": -0.182552
  },
  "Canterbury": {
    "formatted_address": "Canterbury, UK",
    "lat": 51.280233,
    "lng": 1.0789089
  },
  "Dover": {
    "formatted_address": "Dover, UK",
    "lat": 51.1278758,
    "lng": 1.3134027
  },
  "Hythe": {
    "formatted_address": "Hythe, UK",
    "lat": 51.071739,
    "lng": 1.081937
  },
  "Maidstone": {
    "formatted_address": "Maidstone, UK",
    "lat": 51.270363,
    "lng": 0.522699
  },
  "New Romney": {
    "formatted_address": "New Romney, UK",
    "lat": 50.985117,
    "lng": 0.9394730000000001
  },
  "Queenborough": {
    "formatted_address": "Queenborough, UK",
    "lat": 51.4172853,
    "lng": 0.7470207
  },
  "Rochester": {
    "formatted_address": "Rochester, UK",
    "lat": 51.38800000000001,
    "lng": 0.506721
  },
  "Sandwich": {
    "formatted_address": "Sandwich, UK",
    "lat": 51.274017,
    "lng": 1.337427
  },
  "Clitheroe": {
    "formatted_address": "Clitheroe BB7, UK",
    "lat": 53.871098,
    "lng": -2.393083
  },
  "Lancaster": {
    "formatted_address": "Lancaster, UK",
    "lat": 54.046575,
    "lng": -2.8007399
  },
  "Liverpool": {
    "formatted_address": "Liverpool, UK",
    "lat": 53.4083714,
    "lng": -2.9915726
  },
  "Newton": {
    "formatted_address": "Newton, Nottingham NG13, UK",
    "lat": 52.969012,
    "lng": -0.9758839999999999
  },
  "Preston": {
    "formatted_address": "Preston, UK",
    "lat": 53.763201,
    "lng": -2.70309
  },
  "Wigan": {
    "formatted_address": "Wigan, UK",
    "lat": 53.5450645,
    "lng": -2.6325074
  },
  "Leicester ": {
    "formatted_address": "Leicester, UK",
    "lat": 52.6368778,
    "lng": -1.1397592
  },
  "Boston": {
    "formatted_address": "Boston PE21, UK",
    "lat": 52.97893999999999,
    "lng": -0.026577
  },
  "Grantham": {
    "formatted_address": "Grantham, UK",
    "lat": 52.912524,
    "lng": -0.643582
  },
  "Great Grimsby": {
    "formatted_address": "Grimsby, UK",
    "lat": 53.567471,
    "lng": -0.080784
  },
  "Stamford": {
    "formatted_address": "Stamford PE9, UK",
    "lat": 52.65128199999999,
    "lng": -0.4802159999999999
  },
  "Lincoln ": {
    "formatted_address": "Lincoln, UK",
    "lat": 53.230688,
    "lng": -0.5405789999999999
  },
  "London": {
    "formatted_address": "London, UK",
    "lat": 51.5073509,
    "lng": -0.1277583
  },
  "Westminster": {
    "formatted_address": "City of Westminster, London, UK",
    "lat": 51.5145337,
    "lng": -0.1595389
  },
  "Monmouth ": {
    "formatted_address": "Monmouth NP25, UK",
    "lat": 51.8116533,
    "lng": -2.7163045
  },
  "Castle Rising": {
    "formatted_address": "Castle Rising, King's Lynn PE31, UK",
    "lat": 52.798091,
    "lng": 0.470443
  },
  "Great Yarmouth": {
    "formatted_address": "Great Yarmouth, UK",
    "lat": 52.598233,
    "lng": 1.728047
  },
  "King's Lynn": {
    "formatted_address": "King's Lynn, UK",
    "lat": 52.7516798,
    "lng": 0.4022963000000001
  },
  "Norwich": {
    "formatted_address": "Norwich, UK",
    "lat": 52.6308859,
    "lng": 1.297355
  },
  "Thetford": {
    "formatted_address": "Thetford, UK",
    "lat": 52.412856,
    "lng": 0.751657
  },
  "Brackley": {
    "formatted_address": "Brackley NN13, UK",
    "lat": 52.027411,
    "lng": -1.143152
  },
  "Higham Ferrers": {
    "formatted_address": "Higham Ferrers, UK",
    "lat": 52.307374,
    "lng": -0.5928409
  },
  "Northampton ": {
    "formatted_address": "Northampton, UK",
    "lat": 52.240477,
    "lng": -0.9026560000000001
  },
  "Peterborough": {
    "formatted_address": "Peterborough, UK",
    "lat": 52.56949849999999,
    "lng": -0.2405299
  },
  "Berwick-upon-Tweed": {
    "formatted_address": "Berwick-upon-Tweed TD15, UK",
    "lat": 55.770242,
    "lng": -2.005395
  },
  "Morpeth": {
    "formatted_address": "Morpeth NE61, UK",
    "lat": 55.16875,
    "lng": -1.687493
  },
  "Newcastle-upon-Tyne": {
    "formatted_address": "Newcastle upon Tyne, UK",
    "lat": 54.978252,
    "lng": -1.61778
  },
  "East Retford": {
    "formatted_address": "Retford DN22, UK",
    "lat": 53.32135599999999,
    "lng": -0.9455030000000001
  },
  "Newark": {
    "formatted_address": "Newark-on-Trent, Newark NG24, UK",
    "lat": 53.0700391,
    "lng": -0.80657
  },
  "Nottingham ": {
    "formatted_address": "Nottingham, UK",
    "lat": 52.95478319999999,
    "lng": -1.1581086
  },
  "Banbury": {
    "formatted_address": "Banbury, UK",
    "lat": 52.0629009,
    "lng": -1.339775
  },
  "New Woodstock": {
    "formatted_address": "Woodstock OX20, UK",
    "lat": 51.847267,
    "lng": -1.354091
  },
  "Oxford ": {
    "formatted_address": "Oxford, UK",
    "lat": 51.7520209,
    "lng": -1.2577263
  },
  "Bishop's Castle": {
    "formatted_address": "Bishop's Castle, Bishops Castle SY9, UK",
    "lat": 52.4900507,
    "lng": -2.9984386
  },
  "Bridgnorth": {
    "formatted_address": "Bridgnorth, UK",
    "lat": 52.53445499999999,
    "lng": -2.424549
  },
  "Ludlow": {
    "formatted_address": "Ludlow SY8, UK",
    "lat": 52.367749,
    "lng": -2.7139129
  },
  "Shrewsbury": {
    "formatted_address": "Shrewsbury, UK",
    "lat": 52.70730289999999,
    "lng": -2.7553268
  },
  "Much Wenlock": {
    "formatted_address": "Much Wenlock TF13, UK",
    "lat": 52.5971339,
    "lng": -2.5592959
  },
  "Bath": {
    "formatted_address": "Bath, UK",
    "lat": 51.3810641,
    "lng": -2.3590167
  },
  "Bridgwater": {
    "formatted_address": "Bridgwater, UK",
    "lat": 51.127889,
    "lng": -3.003632
  },
  "Ilchester": {
    "formatted_address": "Ilchester, Yeovil BA22, UK",
    "lat": 51.004774,
    "lng": -2.682366
  },
  "Milborne Port": {
    "formatted_address": "Milborne Port, Sherborne DT9, UK",
    "lat": 50.967342,
    "lng": -2.46114
  },
  "Minehead": {
    "formatted_address": "Minehead, UK",
    "lat": 51.20428,
    "lng": -3.481152
  },
  "Taunton": {
    "formatted_address": "Taunton, UK",
    "lat": 51.015344,
    "lng": -3.106849
  },
  "Wells": {
    "formatted_address": "Wells BA5, UK",
    "lat": 51.209347,
    "lng": -2.6445979
  },
  "Lichfield": {
    "formatted_address": "Lichfield, UK",
    "lat": 52.681602,
    "lng": -1.831672
  },
  "Newcastle-under-Lyme": {
    "formatted_address": "Newcastle-under-Lyme, UK",
    "lat": 53.013208,
    "lng": -2.2273002
  },
  "Stafford ": {
    "formatted_address": "Stafford, UK",
    "lat": 52.806693,
    "lng": -2.12066
  },
  "Tamworth": {
    "formatted_address": "Tamworth, UK",
    "lat": 52.633584,
    "lng": -1.691032
  },
  "Aldeburgh": {
    "formatted_address": "Aldeburgh IP15, UK",
    "lat": 52.155357,
    "lng": 1.600446
  },
  "Bury St. Edmunds": {
    "formatted_address": "Bury St Edmunds, Bury Saint Edmunds, UK",
    "lat": 52.2429228,
    "lng": 0.7104931999999999
  },
  "Dunwich": {
    "formatted_address": "Dunwich, Saxmundham IP17, UK",
    "lat": 52.2766935,
    "lng": 1.6265635
  },
  "Eye": {
    "formatted_address": "Eye, UK",
    "lat": 52.319605,
    "lng": 1.146209
  },
  "Ipswich": {
    "formatted_address": "Ipswich, UK",
    "lat": 52.056736,
    "lng": 1.14822
  },
  "Orford": {
    "formatted_address": "Orford, Woodbridge IP12, UK",
    "lat": 52.0947402,
    "lng": 1.5341196
  },
  "Sudbury": {
    "formatted_address": "Sudbury CO10, UK",
    "lat": 52.041047,
    "lng": 0.726706
  },
  "Bletchingley": {
    "formatted_address": "Bletchingley, UK",
    "lat": 51.240586,
    "lng": -0.099162
  },
  "Guildford": {
    "formatted_address": "Guildford, UK",
    "lat": 51.23622,
    "lng": -0.570409
  },
  "Haslemere": {
    "formatted_address": "Haslemere, UK",
    "lat": 51.090856,
    "lng": -0.7133729999999999
  },
  "Reigate": {
    "formatted_address": "Reigate, UK",
    "lat": 51.237276,
    "lng": -0.205883
  },
  "Southwark": {
    "formatted_address": "London Borough of Southwark, UK",
    "lat": 51.4880572,
    "lng": -0.0762838
  },
  "Arundel": {
    "formatted_address": "Arundel BN18, UK",
    "lat": 50.855171,
    "lng": -0.555119
  },
  "Bramber": {
    "formatted_address": "Bramber, Steyning BN44 3WE, UK",
    "lat": 50.8829015,
    "lng": -0.313035
  },
  "Chichester": {
    "formatted_address": "Chichester, UK",
    "lat": 50.83761000000001,
    "lng": -0.774936
  },
  "East Grinstead": {
    "formatted_address": "East Grinstead, UK",
    "lat": 51.128742,
    "lng": -0.014468
  },
  "Hastings": {
    "formatted_address": "Hastings, UK",
    "lat": 50.854259,
    "lng": 0.573453
  },
  "Horsham": {
    "formatted_address": "Horsham, UK",
    "lat": 51.062883,
    "lng": -0.325858
  },
  "Lewes": {
    "formatted_address": "Lewes, UK",
    "lat": 50.87387200000001,
    "lng": 0.00878
  },
  "Midhurst": {
    "formatted_address": "Midhurst GU29, UK",
    "lat": 50.9868979,
    "lng": -0.737274
  },
  "Rye": {
    "formatted_address": "Rye TN31, UK",
    "lat": 50.949708,
    "lng": 0.7372599999999999
  },
  "Seaford": {
    "formatted_address": "Seaford, UK",
    "lat": 50.7734669,
    "lng": 0.101108
  },
  "Steyning": {
    "formatted_address": "Steyning BN44, UK",
    "lat": 50.887403,
    "lng": -0.326676
  },
  "Winchelsea": {
    "formatted_address": "Winchelsea TN36 4EL, UK",
    "lat": 50.92497210000001,
    "lng": 0.7095541
  },
  "Coventry": {
    "formatted_address": "Coventry, UK",
    "lat": 52.406822,
    "lng": -1.519693
  },
  "Warwick ": {
    "formatted_address": "Warwick, UK",
    "lat": 52.28231599999999,
    "lng": -1.584927
  },
  "Appleby": {
    "formatted_address": "Appleby-in-Westmorland CA16, UK",
    "lat": 54.578302,
    "lng": -2.489614
  },
  "Calne": {
    "formatted_address": "Calne SN11, UK",
    "lat": 51.43933,
    "lng": -2.003884
  },
  "Chippenham": {
    "formatted_address": "Chippenham, UK",
    "lat": 51.461514,
    "lng": -2.1195157
  },
  "Cricklade": {
    "formatted_address": "Cricklade, Swindon SN6, UK",
    "lat": 51.6380709,
    "lng": -1.856351
  },
  "Devizes": {
    "formatted_address": "Devizes SN10, UK",
    "lat": 51.3489069,
    "lng": -1.994828
  },
  "Downton": {
    "formatted_address": "Downton, Salisbury SP5, UK",
    "lat": 50.994428,
    "lng": -1.751388
  },
  "Great Bedwyn": {
    "formatted_address": "Great Bedwyn, Marlborough SN8, UK",
    "lat": 51.37982,
    "lng": -1.602843
  },
  "Heytesbury": {
    "formatted_address": "Heytesbury, Warminster BA12, UK",
    "lat": 51.1825471,
    "lng": -2.1046695
  },
  "Hindon": {
    "formatted_address": "Hindon, Salisbury SP3, UK",
    "lat": 51.0947817,
    "lng": -2.1291153
  },
  "Ludgershall": {
    "formatted_address": "Ludgershall, Andover SP11, UK",
    "lat": 51.255202,
    "lng": -1.621289
  },
  "Malmesbury": {
    "formatted_address": "Malmesbury SN16, UK",
    "lat": 51.586357,
    "lng": -2.102834
  },
  "Marlborough": {
    "formatted_address": "Marlborough SN8, UK",
    "lat": 51.420073,
    "lng": -1.727062
  },
  "Old Sarum": {
    "formatted_address": "Castle Rd, Salisbury SP1 3SD, UK",
    "lat": 51.0932288,
    "lng": -1.8048782
  },
  "Salisbury": {
    "formatted_address": "Salisbury, UK",
    "lat": 51.068785,
    "lng": -1.794472
  },
  "Westbury": {
    "formatted_address": "Westbury, UK",
    "lat": 51.256659,
    "lng": -2.185772
  },
  "Wilton": {
    "formatted_address": "Wilton, Salisbury SP2, UK",
    "lat": 51.079018,
    "lng": -1.862598
  },
  "Wootton Bassett": {
    "formatted_address": "Royal Wootton Bassett, Swindon, UK",
    "lat": 51.54139499999999,
    "lng": -1.902318
  },
  "Bewdley": {
    "formatted_address": "Bewdley, UK",
    "lat": 52.375539,
    "lng": -2.316973
  },
  "Droitwich": {
    "formatted_address": "Droitwich Spa, Droitwich WR9, UK",
    "lat": 52.2615914,
    "lng": -2.1526355
  },
  "Evesham": {
    "formatted_address": "Evesham WR11, UK",
    "lat": 52.09214900000001,
    "lng": -1.94677
  },
  "Worcester ": {
    "formatted_address": "Worcester, UK",
    "lat": 52.193636,
    "lng": -2.221575
  },
  "Aldborough": {
    "formatted_address": "Aldborough, York YO51, UK",
    "lat": 54.0919691,
    "lng": -1.377826
  },
  "Beverley": {
    "formatted_address": "Beverley HU17, UK",
    "lat": 53.841963,
    "lng": -0.435093
  },
  "Boroughbridge": {
    "formatted_address": "Boroughbridge, York YO51, UK",
    "lat": 54.0942662,
    "lng": -1.3953847
  },
  "Hedon": {
    "formatted_address": "Hedon, Hull HU12, UK",
    "lat": 53.7394596,
    "lng": -0.2006222
  },
  "Kingston-upon-Hull": {
    "formatted_address": "Hull, UK",
    "lat": 53.76762360000001,
    "lng": -0.3274198
  },
  "Knaresborough": {
    "formatted_address": "Knaresborough, UK",
    "lat": 54.011022,
    "lng": -1.47102
  },
  "Malton": {
    "formatted_address": "Malton YO17, UK",
    "lat": 54.136836,
    "lng": -0.7978970000000001
  },
  "Northallerton": {
    "formatted_address": "Northallerton, UK",
    "lat": 54.337961,
    "lng": -1.429959
  },
  "Pontefract": {
    "formatted_address": "Pontefract WF8, UK",
    "lat": 53.691688,
    "lng": -1.308648
  },
  "Richmond": {
    "formatted_address": "Richmond, UK",
    "lat": 51.46131099999999,
    "lng": -0.303742
  },
  "Ripon": {
    "formatted_address": "Ripon HG4, UK",
    "lat": 54.1361346,
    "lng": -1.5237756
  },
  "Scarborough": {
    "formatted_address": "Scarborough, UK",
    "lat": 54.283113,
    "lng": -0.399752
  },
  "Thirsk": {
    "formatted_address": "Thirsk YO7, UK",
    "lat": 54.233849,
    "lng": -1.341377
  },
  "York": {
    "formatted_address": "York, UK",
    "lat": 53.95996510000001,
    "lng": -1.0872979
  }
}