[
  {
    "name": "Northumberland",
    "lat": 55.10044338096346,
    "lng": -2.1196097656250057
  },
  {
    "name": "Cumberland",
    "lat": 54.79758895071922,
    "lng": -3.0204886718750057
  },
  {
    "name": "Westmorland",
    "lat": 54.47968434161083,
    "lng": -2.6359671875000057
  },
  {
    "name": "Durham County",
    "lat": 54.74689117176107,
    "lng": -1.6911429687500057
  },
  {
    "name": "Yorkshire",
    "lat": 54.069131196213455,
    "lng": -1.3066214843750057
  },
  {
    "name": "Lancashire",
    "lat": 53.75203133706328,
    "lng": -2.6469535156250057
  },
  {
    "name": "Cheshire",
    "lat": 53.215974956166086,
    "lng": -2.4711722656250057
  },
  {
    "name": "Derbyshire",
    "lat": 53.16331368708815,
    "lng": -1.5263480468750057
  },
  {
    "name": "Nottinghamshire",
    "lat": 53.16331368708815,
    "lng": -0.9880179687500057
  },
  {
    "name": "Lincolnshire",
    "lat": 53.183069242315575,
    "lng": -0.2409476562500057
  },


  
  {
    "name": "Rutland",
    "lat": 52.66646341733278,
    "lng": -0.6584281250000057
  },


  
  {
    "name": "Norfolk",
    "lat": 52.679786789007984,
    "lng": 0.9565621093749943
  },

  {
    "name": "Essex",
    "lat": 51.69476862074663,
    "lng": 0.4786568359374943
  },
  {
    "name": "Hertfordshire",
    "lat": 51.851117832627324,
    "lng": -0.14210830755277737
  },
  {
    "name": "Bedfordshire",
    "lat": 52.09813777494991,
    "lng": -0.42225967474027737
  },
  {
    "name": "Buckinghamshire",
    "lat": 51.898597089226854,
    "lng": -0.8672059638027774
  },
  {
    "name": "Cambridgeshire",
    "lat": 52.25982032180337,
    "lng": 0.16001571588472263
  },
  {
    "name": "Huntingdonshire",
    "lat": 52.38740243200747,
    "lng": -0.20802627630277737
  },
  {
    "name": "Suffolk",
    "lat": 52.20599143989433,
    "lng": 0.9015928643222226
  },
  {
    "name": "Northamptonshire",
    "lat": 52.350508598375235,
    "lng": -0.8232606513027774
  },
  {
    "name": "Leicestershire",
    "lat": 52.601446714718605,
    "lng": -1.1143983466152774
  },
  {
    "name": "Warwickshire",
    "lat": 52.34379731776655,
    "lng": -1.5868104559902774
  },
  {
    "name": "Worcestershire",
    "lat": 52.25645792887615,
    "lng": -2.1471131903652774
  },
  {
    "name": "Staffordshire",
    "lat": 52.774591204943576,
    "lng": -2.0427430731777774
  },
  {
    "name": "Shropshire",
    "lat": 52.64479720970847,
    "lng": -2.6909364325527774
  },
  {
    "name": "Herefordshire",
    "lat": 52.125125688646904,
    "lng": -2.7788270575527774
  },
  {
    "name": "Monmouthshire",
    "lat": 51.73220027191422,
    "lng": -2.9491151434902774
  },
  {
    "name": "Gloucestershire",
    "lat": 51.80358843316435,
    "lng": -2.1471131903652774
  },
  {
    "name": "Oxfordshire",
    "lat": 51.87147222421537,
    "lng": -1.3231385809902774
  },
  {
    "name": "Berkshire",
    "lat": 51.50026334316213,
    "lng": -1.2737001044277774
  },
  {
    "name": "Cornwall",
    "lat": 50.497775500844995,
    "lng": -4.723407135677777
  },
  {
    "name": "Devon",
    "lat": 50.75564241725088,
    "lng": -3.8005555731777774
  },
  {
    "name": "Somerset",
    "lat": 51.16391375296457,
    "lng": -2.7788270575527774
  },
  {
    "name": "Dorset",
    "lat": 50.81709305457743,
    "lng": -2.3268810945439955
  },
  {
    "name": "Wiltshire",
    "lat": 51.30835461612074,
    "lng": -1.9392012883729626
  },
  {
    "name": "Hampshire",
    "lat": 51.0638971145255,
    "lng": -1.2580489446229626
  },
  {
    "name": "Sussex",
    "lat": 50.96713464989635,
    "lng": -0.12645714774796257
  },
  {
    "name": "Kent",
    "lat": 51.23618530224315,
    "lng": 0.6425858210020374
  },
  {
    "name": "Surrey",
    "lat": 51.267128888479405,
    "lng": -0.4121016789979626
  },
  {
    "name": "Middlesex",
    "lat": 51.56859209056996,
    "lng": -0.2857589055604626
  }
]